{
  "type": "FeatureCollection",
  "features": [
    {
      "type": "Feature",
      "properties": {
        "Date": "08/04/2020 23:05",
        "Text": "The Corona Files - Bored Teenager Edition In the third installment of the Corona Files I find out Mansfield has been keeping a secret from me. No toilet paper was harmed in the making of this episode! #thecoronafiles #boredteenager #socialdistancingshenanigans #toiletpaper",
        "Location": "Spring Hill, TN"
      },
      "geometry": {
        "type": "Point",
        "coordinates": [
          -86.911442,
          35.750093
        ]
      }
    },
    {
      "type": "Feature",
      "properties": {
        "Date": "08/04/2020 20:41",
        "Text": "$ashleylebron sis u know we running outta toilet paper in this bitch Lmaoo but nah fuck the corona cant even work right now luh u ",
        "Location": "Lynn, MA"
      },
      "geometry": {
        "type": "Point",
        "coordinates": [
          -70.960691,
          42.471096
        ]
      }
    },
    {
      "type": "Feature",
      "properties": {
        "Date": "08/04/2020 15:48",
        "Text": "is holding my breath a good way to see if i have corona virus, brah go eat toilet fries",
        "Location": "Oklahoma City, OK"
      },
      "geometry": {
        "type": "Point",
        "coordinates": [
          -97.602513,
          35.393761
        ]
      }
    },
    {
      "type": "Feature",
      "properties": {
        "Date": "08/04/2020 12:19",
        "Text": "Stores shouldnt take back toilet paper. The plastic could have corona virus",
        "Location": "Tampa, FL"
      },
      "geometry": {
        "type": "Point",
        "coordinates": [
          -82.495716,
          27.935231
        ]
      }
    },
    {
      "type": "Feature",
      "properties": {
        "Date": "08/04/2020 09:32",
        "Text": "Corona Lockdown In Germany: Toilet Roll, Home Office &amp; Data Privacy | Me... via ",
        "Location": "Honolulu, HI"
      },
      "geometry": {
        "type": "Point",
        "coordinates": [
          -157.789396,
          21.40572
        ]
      }
    },
    {
      "type": "Feature",
      "properties": {
        "Date": "08/04/2020 01:09",
        "Text": "Had to do a damn hunger games toilet paper run this evening, then got pissed when I came out of the store and had to elain myself to some old dude without being asked. I was down to 2 rolls. Stuff was about to get crazy. Damn this corona.",
        "Location": "Ohio, USA"
      },
      "geometry": {
        "type": "Point",
        "coordinates": [
          -82.883453,
          40.262259
        ]
      }
    },
    {
      "type": "Feature",
      "properties": {
        "Date": "07/04/2020 22:47",
        "Text": "Dear Chicagoland, I am pleading with you to please stay indoors this week. I know its in the 70s, and as hard as it is, please stay indoors. They predict that this week will be the peak for Corona for us. Theres only so much toilet paper to wipe away my tears. I love you all!",
        "Location": "Chicago, IL"
      },
      "geometry": {
        "type": "Point",
        "coordinates": [
          -87.66063,
          41.87897
        ]
      }
    },
    {
      "type": "Feature",
      "properties": {
        "Date": "07/04/2020 22:39",
        "Text": "Is this a toilet soap ??",
        "Location": "Southglenn, CO"
      },
      "geometry": {
        "type": "Point",
        "coordinates": [
          -104.97259,
          39.577176
        ]
      }
    },
    {
      "type": "Feature",
      "properties": {
        "Date": "07/04/2020 22:32",
        "Text": "Ive decided I blame the corona outbreak on the MORONS that stock piled toilet paper forcing everyone else to have to go out every day in search of fucking TOILET PAPER",
        "Location": "Staten Island, NY"
      },
      "geometry": {
        "type": "Point",
        "coordinates": [
          -74.151842,
          40.589886
        ]
      }
    },
    {
      "type": "Feature",
      "properties": {
        "Date": "07/04/2020 20:04",
        "Text": "Bruh her face is right next to the toilet .you know there is piss droplets pmfao. I hope this was pre corona",
        "Location": "Elk Grove, CA"
      },
      "geometry": {
        "type": "Point",
        "coordinates": [
          -121.375019,
          38.412619
        ]
      }
    },
    {
      "type": "Feature",
      "properties": {
        "Date": "07/04/2020 19:10",
        "Text": "Stocked on coffee for life. Toilet paper for 3 months... Book: sucks submissions are no go or no response... Not sure whats up. Slow due to Corona?",
        "Location": "Chino Valley, AZ"
      },
      "geometry": {
        "type": "Point",
        "coordinates": [
          -112.420508,
          34.753318
        ]
      }
    },
    {
      "type": "Feature",
      "properties": {
        "Date": "07/04/2020 17:17",
        "Text": "The whole world is in the corona Toilet ..",
        "Location": "Robinson Township, PA"
      },
      "geometry": {
        "type": "Point",
        "coordinates": [
          -80.135814,
          40.455576
        ]
      }
    },
    {
      "type": "Feature",
      "properties": {
        "Date": "07/04/2020 04:26",
        "Text": "Hey Hay AMERICA: Is everyone cozy on House Arrest? Enjoy ur brief Corona respite cause your State Autocrats are gettin well-paid no matter what during this: The Great Toilet Paper Pandemic of 2020. There will be Heck to Pay when AMERICANS find out the TRUTH about this waste.",
        "Location": "San Diego, CA"
      },
      "geometry": {
        "type": "Point",
        "coordinates": [
          -117.15529,
          32.72793
        ]
      }
    },
    {
      "type": "Feature",
      "properties": {
        "Date": "07/04/2020 00:26",
        "Text": "Tell me again why toilet paper is an endangered species. Corona virus makes you shit too.... I thought it was Corona light that did that Fucking pandemic you bastard",
        "Location": "El Paso, TX"
      },
      "geometry": {
        "type": "Point",
        "coordinates": [
          -106.488793,
          31.818409
        ]
      }
    },
    {
      "type": "Feature",
      "properties": {
        "Date": "07/04/2020 00:24",
        "Text": "Corona is Mexicos toilet paper",
        "Location": "Fort Worth, TX"
      },
      "geometry": {
        "type": "Point",
        "coordinates": [
          -97.33181,
          32.729442
        ]
      }
    },
    {
      "type": "Feature",
      "properties": {
        "Date": "06/04/2020 19:40",
        "Text": "Corona Chronicles: Im hella bored. Send help.......and toilet paper. #ronalockdown #rona #dookie #toiletpaperchallenge #nuttella Las Vegas, Nevada",
        "Location": "Las Vegas, NV"
      },
      "geometry": {
        "type": "Point",
        "coordinates": [
          -115.279104,
          36.190364
        ]
      }
    },
    {
      "type": "Feature",
      "properties": {
        "Date": "06/04/2020 16:19",
        "Text": "#Corona you know life has changed when you find paper towels and toilet paper and you feel like you made a score!!",
        "Location": "Salem, MA"
      },
      "geometry": {
        "type": "Point",
        "coordinates": [
          -70.899422,
          42.514094
        ]
      }
    },
    {
      "type": "Feature",
      "properties": {
        "Date": "06/04/2020 03:17",
        "Text": "While u people r out panicking buying toilet paper I was out buying what we really need Theres a cover up #DaRona (covid 19 aka corona) virus is turning people into (tan tan tan) #ZOMBIES !! It truly is like a bad movie we r all living in today #zombiekiller #besafe #nohuglife",
        "Location": "Pasadena, CA"
      },
      "geometry": {
        "type": "Point",
        "coordinates": [
          -118.148936,
          34.153289
        ]
      }
    },
    {
      "type": "Feature",
      "properties": {
        "Date": "06/04/2020 00:36",
        "Text": "Corona pick up lines... Are you out of toilet paper because I could be your Prince Charmin #CoronavirusUSA #Covid_19",
        "Location": "Knoxville, TN"
      },
      "geometry": {
        "type": "Point",
        "coordinates": [
          -83.969472,
          35.973011
        ]
      }
    },
    {
      "type": "Feature",
      "properties": {
        "Date": "05/04/2020 23:06",
        "Text": "Condoms gonna sell out the way toilet paper did",
        "Location": "Chicago, IL"
      },
      "geometry": {
        "type": "Point",
        "coordinates": [
          -87.66063,
          41.87897
        ]
      }
    },
    {
      "type": "Feature",
      "properties": {
        "Date": "05/04/2020 18:28",
        "Text": "Google photo app sent me this meme. So funny. Kays got the Corona Virus toilet paper blues. She never leaves home without it. Buena Park, California",
        "Location": "Buena Park, CA"
      },
      "geometry": {
        "type": "Point",
        "coordinates": [
          -118.004034,
          33.855981
        ]
      }
    },
    {
      "type": "Feature",
      "properties": {
        "Date": "05/04/2020 18:18",
        "Text": "Honestly ask yourself, have you really been THAT shitty during corona to buy all the damn toilet paper",
        "Location": "Greensboro, NC"
      },
      "geometry": {
        "type": "Point",
        "coordinates": [
          -79.84426,
          36.093163
        ]
      }
    },
    {
      "type": "Feature",
      "properties": {
        "Date": "05/04/2020 18:18",
        "Text": "im ready for this corona virus shit to be ova... i miss my good toilet paper",
        "Location": "Oxford, AL"
      },
      "geometry": {
        "type": "Point",
        "coordinates": [
          -85.860061,
          33.602381
        ]
      }
    },
    {
      "type": "Feature",
      "properties": {
        "Date": "05/04/2020 17:37",
        "Text": "ItS jUsT a FlU - people currently hoarding toilet paper. Rant over. Fuck Corona.",
        "Location": "Corvallis, OR"
      },
      "geometry": {
        "type": "Point",
        "coordinates": [
          -123.274047,
          44.577978
        ]
      }
    },
    {
      "type": "Feature",
      "properties": {
        "Date": "04/04/2020 16:40",
        "Text": "The headlines in a month will be We beat Corona Virus, but succumbed to alcoholism!",
        "Location": "Portland, ME"
      },
      "geometry": {
        "type": "Point",
        "coordinates": [
          -70.296138,
          43.679368
        ]
      }
    },
    {
      "type": "Feature",
      "properties": {
        "Date": "04/04/2020 14:54",
        "Text": "If and when Trump visits Corona-ravaged areas of the country, he should throw toilet paper rolls at the crowds. #SaturdayMorning #AMJoy",
        "Location": "Des Moines, WA"
      },
      "geometry": {
        "type": "Point",
        "coordinates": [
          -122.313331,
          47.400587
        ]
      }
    },
    {
      "type": "Feature",
      "properties": {
        "Date": "04/04/2020 10:00",
        "Text": "HAHAHAHA AND THEN THIS DUMMY WENT AND LICKED A TOILET THEN GOT CORONA.",
        "Location": "Montclair, CA"
      },
      "geometry": {
        "type": "Point",
        "coordinates": [
          -117.696434,
          34.073936
        ]
      }
    },
    {
      "type": "Feature",
      "properties": {
        "Date": "04/04/2020 04:07",
        "Text": "Im not a biology PhD, Im still fairly sure toilet paper doesnt cure the disease covid 19, or kills the Corona virus. However, Corona is great with a lime on top.",
        "Location": "Margate, FL"
      },
      "geometry": {
        "type": "Point",
        "coordinates": [
          -80.214575,
          26.24683
        ]
      }
    },
    {
      "type": "Feature",
      "properties": {
        "Date": "04/04/2020 03:49",
        "Text": "Honestly the fact that the first thing people did when this whole corona thing came about was to stock up on toilet paper, really shows how selfish our culture is. They didnt think, what can I do to help this situation? But they thought what can I DO to help myself. So sad.",
        "Location": "Ohio, USA"
      },
      "geometry": {
        "type": "Point",
        "coordinates": [
          -84.261243,
          38.964061
        ]
      }
    },
    {
      "type": "Feature",
      "properties": {
        "Date": "04/04/2020 01:46",
        "Text": "Fuck now these motherfuckers ready buy out all the Corona like it was toilet paper",
        "Location": "Virginia, USA"
      },
      "geometry": {
        "type": "Point",
        "coordinates": [
          -78.376655,
          37.73086
        ]
      }
    },
    {
      "type": "Feature",
      "properties": {
        "Date": "04/04/2020 01:13",
        "Text": "Surprised all you dumb ppl buying all this toilet paper are not covering your house with it thinking its gonna be some corona virus shield or something",
        "Location": "Washington, USA"
      },
      "geometry": {
        "type": "Point",
        "coordinates": [
          -77.01712,
          38.82652
        ]
      }
    },
    {
      "type": "Feature",
      "properties": {
        "Date": "03/04/2020 23:36",
        "Text": "Theres toilet paper rolls to win in THIS crane!! #cranegame #whytoiletpaper #toiletpaper #covid2020 #covid #corona #legit #crane Nifty Fiftys",
        "Location": "Folsom, PA"
      },
      "geometry": {
        "type": "Point",
        "coordinates": [
          -75.331734,
          39.892935
        ]
      }
    },
    {
      "type": "Feature",
      "properties": {
        "Date": "03/04/2020 22:01",
        "Text": "Corona beer is safe. Corona beer is the new water. Dont use your tap. Thats the same thing as toilet water. Corona should be poured on our crops. Corona has electrolytes. Carls Jr. proudly serves Corona beer. Drink Corona beer.",
        "Location": "Cincinnati, OH"
      },
      "geometry": {
        "type": "Point",
        "coordinates": [
          -84.543959,
          39.14767
        ]
      }
    },
    {
      "type": "Feature",
      "properties": {
        "Date": "03/04/2020 17:38",
        "Text": "Never in our lives did we think we would be so excited to get in toilet paper...but here we are Thanks a lot #corona! #quarantinelife",
        "Location": "Nashville, TN"
      },
      "geometry": {
        "type": "Point",
        "coordinates": [
          -86.834683,
          36.236907
        ]
      }
    },
    {
      "type": "Feature",
      "properties": {
        "Date": "02/04/2020 23:31",
        "Text": "Now delivering in Florida. Groceries and meal kits, dry goods and toilet paper. Keep us busy, we appreciate it. #groceries #foodkits #toiletpaper #thechateau #florida #corona Anna Maria, Florida",
        "Location": "Anna Maria, FL"
      },
      "geometry": {
        "type": "Point",
        "coordinates": [
          -82.733172,
          27.528559
        ]
      }
    },
    {
      "type": "Feature",
      "properties": {
        "Date": "02/04/2020 16:25",
        "Text": "When corona chan gets deported, we gotta rip charm city a new one. Im building a new gun to protect my hoards of cat food and toilet paper. We can go shoot it!",
        "Location": "Baltimore, MD"
      },
      "geometry": {
        "type": "Point",
        "coordinates": [
          -76.649533,
          39.319732
        ]
      }
    },
    {
      "type": "Feature",
      "properties": {
        "Date": "02/04/2020 13:48",
        "Text": "Where is the industrial focus on creating mass production of N95 masks, self test kits for corona virus, toilet paper, paper towels, hand sanitizer, exam gloves,etc. These could be ramped up parallel!",
        "Location": "Louisiana, USA"
      },
      "geometry": {
        "type": "Point",
        "coordinates": [
          -92.51441,
          30.542601
        ]
      }
    },
    {
      "type": "Feature",
      "properties": {
        "Date": "02/04/2020 10:02",
        "Text": "Corona Trail Day 19 - Pro Tip: roll all the loose change in your place and deposit it before US currency loses all value and we turn to a toilet paper based economy. Find $23 to spend on booze to stimulate your local economy",
        "Location": "Chicago, IL"
      },
      "geometry": {
        "type": "Point",
        "coordinates": [
          -87.66063,
          41.87897
        ]
      }
    },
    {
      "type": "Feature",
      "properties": {
        "Date": "09/04/2020 03:13",
        "Text": "Sorry strangers at the store, I dont want to talk about corona or the fact theres no toilet paper this shit is old news.",
        "Location": "Riverton, UT"
      },
      "geometry": {
        "type": "Point",
        "coordinates": [
          -111.963649,
          40.518665
        ]
      }
    }
  ]
}