{
  "type": "FeatureCollection",
  "features": [
    {
      "type": "Feature",
      "properties": {
        "Date": "0/04/2020  01:31:56",
        "Text": "Day27 yesterday: 1) Looking like an emo bandito, I went out for supplies after 20 days of isolation to pick up some coffee beans from . Mixtape, Masenqo Nova &amp; Corona Funk blends. Bandana designed by...",
        "Location": "Washington, DC"
      },
      "geometry": {
        "type": "Point",
        "coordinates": [
          -77.011364,
          38.901495
        ]
      }
    },
    {
      "type": "Feature",
      "properties": {
        "Date": "08/04/2020 22:56",
        "Text": "HaHaHa.. Notice she has a coffee'd cup!! A Corona Cup!",
        "Location": "Bayshore, NC"
      },
      "geometry": {
        "type": "Point",
        "coordinates": [
          -77.804172,
          34.286521
        ]
      }
    },
    {
      "type": "Feature",
      "properties": {
        "Date": "08/04/2020 22:24",
        "Text": "Absolutely! Video chat is a grt n its pretty mainstream now! Acha for the coffee date..once Corona is over..u have to plan it and make a trip to mumbai..im very very sure..ain't no way he's gonna say no!",
        "Location": "Summit, NJ"
      },
      "geometry": {
        "type": "Point",
        "coordinates": [
          -74.364363,
          40.717746
        ]
      }
    },
    {
      "type": "Feature",
      "properties": {
        "Date": "08/04/2020 18:54",
        "Text": "Corona virus boredom for me at the moment is going from a beer to a coffee to some kimchi to a glass of wine.",
        "Location": "Washington, DC"
      },
      "geometry": {
        "type": "Point",
        "coordinates": [
          -77.011364,
          38.901495
        ]
      }
    },
    {
      "type": "Feature",
      "properties": {
        "Date": "08/04/2020 01:13",
        "Text": "I really didn't appreciate coffee shop study dates with my friends enough before corona bc sitting at my kitchen table doing homework alone just ain't it",
        "Location": "Robinson, TX"
      },
      "geometry": {
        "type": "Point",
        "coordinates": [
          -97.12675,
          31.450245
        ]
      }
    },
    {
      "type": "Feature",
      "properties": {
        "Date": "07/04/2020 01:10",
        "Text": "Stocked on coffee for life. Toilet paper for 3 months... Book: sucks submissions are no go or no response... Not sure what's up. Slow due to Corona?",
        "Location": "Chino Valley, AZ"
      },
      "geometry": {
        "type": "Point",
        "coordinates": [
          -112.420508,
          34.753318
        ]
      }
    },
    {
      "type": "Feature",
      "properties": {
        "Date": "06/04/2020 15:08",
        "Text": "What's about the worst thing that can happen when you're in tech and it's corona? Coffee spill all over your keyboard Busting out the retired tech in the house. Still staying positive Happy Monday fam!",
        "Location": "Brooklyn, NY"
      },
      "geometry": {
        "type": "Point",
        "coordinates": [
          -73.956582,
          40.652256
        ]
      }
    },
    {
      "type": "Feature",
      "properties": {
        "Date": "06/04/2020 08:15",
        "Text": "That's really the true cost of corona virus. When biggits [sic] like me can just run around unopposed with my violent words of hate... Idk twitter's support staff are the true heros in all of this",
        "Location": "Carney, MD"
      },
      "geometry": {
        "type": "Point",
        "coordinates": [
          -76.523171,
          39.406189
        ]
      }
    },
    {
      "type": "Feature",
      "properties": {
        "Date": "06/04/2020 00:06",
        "Text": "Small things like finally changing my sheets, eating half an avocado, having coffee, doing laundry, and finally getting back to Sunday yoga made my 7th day post Corona nice. Jackson Heights'3Roosevelt Avenue/74th...",
        "Location": "Queens, NY"
      },
      "geometry": {
        "type": "Point",
        "coordinates": [
          -73.805154,
          40.718804
        ]
      }
    },
    {
      "type": "Feature",
      "properties": {
        "Date": "05/04/2020 12:22",
        "Text": "Yesterday was my first post-Corona ride. Today's mug of coffee was an obvious choice. I'll be registering soon, I know I will. #ridebikes #getoutside #fitafter50 #getafterit #guforit #julboathlete #rapha...",
        "Location": "Westfield, NJ"
      },
      "geometry": {
        "type": "Point",
        "coordinates": [
          -74.349338,
          40.650374
        ]
      }
    },
    {
      "type": "Feature",
      "properties": {
        "Date": "04/04/2020 17:00",
        "Text": "I don't like coffee. But I need coffee. And that doesn't really make sense. Thanks, Corona.",
        "Location": "Ohio, USA"
      },
      "geometry": {
        "type": "Point",
        "coordinates": [
          -82.883453,
          40.262259
        ]
      }
    },
    {
      "type": "Feature",
      "properties": {
        "Date": "04/04/2020 15:27",
        "Text": "This is somehow normal for me in here so no big different. I just miss having coffee outside, the weather is so nice. Bs the thing is i did quit coffee before the corona thingy bcuz of some health issues.",
        "Location": "Tucson, AZ"
      },
      "geometry": {
        "type": "Point",
        "coordinates": [
          -110.828987,
          32.19709
        ]
      }
    },
    {
      "type": "Feature",
      "properties": {
        "Date": "04/04/2020 15:21",
        "Text": "If only I had the heads... #quarantineandchill #corona #covid_1 #coffee #girl #head #friend #chill #quarantine #meme #day #10 #lol",
        "Location": "Lakewood, NJ"
      },
      "geometry": {
        "type": "Point",
        "coordinates": [
          -74.211052,
          40.093315
        ]
      }
    },
    {
      "type": "Feature",
      "properties": {
        "Date": "04/04/2020 15:16",
        "Text": "I just saw the most delicious daddy when getting my coffee this morning. I was like... fuck corona",
        "Location": "Frederiksted, Virgin Islands"
      },
      "geometry": {
        "type": "Point",
        "coordinates": [
          -64.880857,
          17.711766
        ]
      }
    },
    {
      "type": "Feature",
      "properties": {
        "Date": "04/04/2020 04:46",
        "Text": "Bartender in quarantine Day 18 - Filling my kitchen sink with boiling hot water and plunging my full hands in to wash my coffee mugs screaming at my gf to cut more limes #covid1 #earthquake #ripsteven #corona #unemployment #restaurantworkers",
        "Location": "Los Angeles, CA"
      },
      "geometry": {
        "type": "Point",
        "coordinates": [
          -118.25703,
          34.05513
        ]
      }
    },
    {
      "type": "Feature",
      "properties": {
        "Date": "03/04/2020 23:11",
        "Text": "Folks, cant believe Im saying this, but quarantine has turned me into a coffee drinker. College didnt do it, two years of engineering didnt do it, freaking corona did smh",
        "Location": "Arlington, VA"
      },
      "geometry": {
        "type": "Point",
        "coordinates": [
          -77.099638,
          38.864458
        ]
      }
    },
    {
      "type": "Feature",
      "properties": {
        "Date": "03/04/2020 01:55",
        "Text": "Welcome to the whipped coffee diaries.It all started as something 2 coffee loving teenagers decided to try while being bored in quarantine... but now it has become a lifestyle. Follow along on our journey to see what kills us first, the corona or a caffeine overdose. ",
        "Location": "Iowa, USA"
      },
      "geometry": {
        "type": "Point",
        "coordinates": [
          -93.500069,
          42.039943
        ]
      }
    },
    {
      "type": "Feature",
      "properties": {
        "Date": "03/04/2020 14:03",
        "Text": "Friday recommendations for another Corona 2020 weekend. Check & YouTube series 'Quarantine Coffee,' and are back with in Facebook LIVE tonight and Jonathan is guesting on #RuPaulsDragRace #snatchgame 2 nite",
        "Location": "Poland, OH"
      },
      "geometry": {
        "type": "Point",
        "coordinates": [
          -80.565647,
          41.013206
        ]
      }
    },
    {
      "type": "Feature",
      "properties": {
        "Date": "03/04/2020 02:53",
        "Text": "Yes you do. Coffee stands are not essential. Every person you make leave their home and possibly bring home corona virus to their family members is a risk that could be avoided",
        "Location": "West Lake Stevens, WA"
      },
      "geometry": {
        "type": "Point",
        "coordinates": [
          -117.845833,
          48.391048
        ]
      }
    },
    {
      "type": "Feature",
      "properties": {
        "Date": "02/04/2020 23:04",
        "Text": "When you get bored enough that you start reading your coffee table books. Loving this one from Reese Witherspoon! #liketkit #LTKhome Corona, California",
        "Location": "Corona, CA"
      },
      "geometry": {
        "type": "Point",
        "coordinates": [
          -117.572106,
          33.861947
        ]
      }
    },
    {
      "type": "Feature",
      "properties": {
        "Date": "02/04/2020 01:36",
        "Text": "When this mfer corona leaves, we getting it!",
        "Location": "Texas, USA"
      },
      "geometry": {
        "type": "Point",
        "coordinates": [
          -98.326329,
          31.030974
        ]
      }
    },
    {
      "type": "Feature",
      "properties": {
        "Date": "02/04/2020 11:15",
        "Text": "Corona Log Day 04022020: watching my son lick the chair legs while I sip my coffee at 7am. #workingfromhomewithkids #COVID1Pandemic",
        "Location": "Manhattan, NY"
      },
      "geometry": {
        "type": "Point",
        "coordinates": [
          -73.967596,
          40.777048
        ]
      }
    },
    {
      "type": "Feature",
      "properties": {
        "Date": "01/04/2020 21:00",
        "Text": "Why is this a thing? I've never once thought, 'cyou know what would make this #coffee perfect?.. #peeps All the creamers around it are gone. #corona #quarantine #cupofjoe #2020 #easter #losangeles #covid1 Los...",
        "Location": "Los Angeles, CA"
      },
      "geometry": {
        "type": "Point",
        "coordinates": [
          -118.25703,
          34.05513
        ]
      }
    }
  ]
}